City_ID,City,Lat,Lng,Max Temp,Humidity,Cloudiness,Wind Speed,Country,Date
0,adamstown,-25.066,-130.1015,20.18,66,37,9.65,PN,1729639428
1,lospalos,-8.5186,127.0025,27.16,56,12,1.5,TL,1729639429
2,ribeira grande,38.5167,-28.7,22.1,94,100,8.49,PT,1729639430
3,waitangi,-43.9535,-176.5597,12.12,78,63,5.81,NZ,1729639431
4,talnakh,69.4865,88.3972,-19.05,89,9,2.04,RU,1729639432
5,bethel,41.3712,-73.414,20.88,65,0,0.89,US,1729639434
6,cabo san lucas,22.8909,-109.9124,31.53,63,0,4.63,MX,1729639315
7,port maria,18.3685,-76.8895,27.45,81,60,1.02,JM,1729639436
8,kerikeri,-35.2268,173.9474,19.47,48,2,2.71,NZ,1729639437
9,margaret river,-33.95,115.0667,13.93,58,82,1.97,AU,1729639336
10,petrolia,42.8668,-82.1498,19.34,52,0,3.09,CA,1729639439
11,wesley,15.5667,-61.3167,24.74,100,75,1.54,DM,1729639440
12,iaciara,-14.0958,-46.6317,24.78,71,100,2.07,BR,1729639442
13,aripuana,-9.1667,-60.6333,24.52,92,98,1.29,BR,1729639443
14,port-aux-francais,-49.35,70.2167,3.1,87,32,13.17,TF,1729639444
15,edinburgh of the seven seas,-37.0676,-12.3116,10.87,60,97,5.83,SH,1729639445
16,longyearbyen,78.2186,15.6401,3.91,70,75,10.29,SJ,1729639446
17,yellowknife,62.456,-114.3525,-0.33,91,100,7.72,CA,1729639447
18,stanley,54.868,-1.6985,7.01,89,0,2.57,GB,1729639234
19,invercargill,-46.4,168.35,17.23,74,100,4.47,NZ,1729639450
20,atafu village,-8.5421,-172.5159,28.55,76,54,6.54,TK,1729639451
21,lebu,-37.6167,-73.65,12.96,83,99,0.19,CL,1729639452
22,minab,27.1467,57.0801,27.78,77,4,1.64,IR,1729639453
23,roma,43.2128,-75.4557,19.5,67,0,0.0,US,1729639266
24,carnarvon,-24.8667,113.6333,19.01,60,0,10.0,AU,1729639455
25,benjamin aceval,-24.9667,-57.5667,30.67,48,97,1.91,PY,1729639457
26,grytviken,-54.2811,-36.5092,-3.02,75,28,6.41,GS,1729639458
27,udachny,66.4167,112.4,-14.93,96,100,4.36,RU,1729639459
28,sabang,5.8933,95.3214,28.32,76,20,8.5,ID,1729639460
29,derzhavinsk,51.1,66.3167,2.47,72,52,3.75,KZ,1729639461
30,saipan,15.1355,145.701,29.39,84,0,4.63,MP,1729639463
31,la passe,45.5549,-0.8967,12.13,83,0,3.85,FR,1729639465
32,vorgashor,67.5833,63.95,-4.37,92,85,2.49,RU,1729639466
33,kone,-21.0595,164.8658,29.46,45,1,2.44,NC,1729639467
34,vadso,70.0744,29.7487,6.09,93,100,3.09,NO,1729639468
35,wailua homesteads,22.0669,-159.378,27.85,74,0,3.6,US,1729639469
36,bikenibeu village,1.3673,173.1241,30.98,66,75,4.63,KI,1729639470
37,kolyvan',55.3053,82.7391,1.71,73,100,1.79,RU,1729639472
38,puerto ayora,-0.7393,-90.3518,20.31,95,83,2.24,EC,1729639473
39,bilibino,68.0546,166.4372,-14.68,98,100,1.72,RU,1729639474
40,daru,-9.0763,143.2092,26.77,71,100,6.36,PG,1729639475
41,iqaluit,63.7506,-68.5145,-5.15,73,40,2.57,CA,1729639478
42,kodiak,57.79,-152.4072,7.73,46,75,7.2,US,1729639216
43,thompson,55.7435,-97.8558,-1.91,86,75,2.57,CA,1729639480
44,blackmans bay,-43.0167,147.3167,14.74,58,25,0.45,AU,1729639481
45,mejit,10.2753,170.8646,28.32,76,59,4.29,MH,1729639482
46,west island,-12.1568,96.8225,25.99,89,40,4.63,CC,1729639376
47,yarmouth,41.7057,-70.2286,16.03,86,0,2.68,US,1729639395
48,touros,-5.1989,-35.4608,25.1,76,50,7.12,BR,1729639486
49,arkalyk,50.2486,66.9114,4.89,73,100,5.02,KZ,1729639487
50,astolfo dutra,-21.3153,-42.8622,23.96,79,62,1.28,BR,1729639488
51,avarua,-21.2078,-159.775,23.03,94,75,3.09,CK,1729639489
52,belyy yar,53.6039,91.3903,-1.06,86,0,1.0,RU,1729639490
53,tiksi,71.6872,128.8694,-19.49,98,77,2.88,RU,1729639491
54,albany,42.6001,-73.9662,18.68,68,0,1.4,US,1729639268
55,anadyr,64.75,177.4833,-3.72,62,0,12.0,RU,1729639494
56,pokhara,28.2333,83.9833,16.62,35,3,3.54,NP,1729639495
57,rongelap,11.1635,166.8941,27.75,82,39,5.98,MH,1729639496
58,bredasdorp,-34.5322,20.0403,15.06,78,100,6.43,ZA,1729639497
59,cannonvale,-20.2833,148.7,25.66,65,21,3.3,AU,1729639498
60,nemuro,43.3236,145.575,14.13,86,100,8.88,JP,1729639499
61,sheoganj,25.15,73.0667,25.08,58,1,0.95,IN,1729639500
62,rio gallegos,-51.6226,-69.2181,14.03,54,20,9.26,AR,1729639359
63,willemstad,12.1084,-68.9335,29.95,77,20,4.63,CW,1729638945
64,amarante do maranhao,-5.5667,-46.7422,27.83,55,96,1.02,BR,1729639504
65,nadym,65.5333,72.5167,-5.31,76,100,6.64,RU,1729639505
66,marsh harbour,26.5412,-77.0636,26.24,78,5,8.64,BS,1729639506
67,ilulissat,69.2167,-51.1,-0.99,59,100,5.14,GL,1729639507
68,ushuaia,-54.8,-68.3,7.81,71,40,11.32,AR,1729639508
69,nicoya,10.1483,-85.452,25.2,92,100,1.39,CR,1729639510
70,taoudenni,22.6783,-3.9836,25.22,22,46,5.76,ML,1729639511
71,port alfred,-33.5906,26.891,15.66,100,100,5.51,ZA,1729639512
72,phai sali,15.5976,100.6585,23.36,92,5,1.37,TH,1729639513
73,st. john's,47.5649,-52.7093,7.86,73,6,3.75,CA,1729639514
74,papatowai,-46.5619,169.4708,17.09,67,100,3.71,NZ,1729639515
75,san luis de la loma,17.2706,-100.8939,27.72,85,73,1.51,MX,1729639516
76,nar'yan-mar,67.6713,53.087,6.21,97,100,4.08,RU,1729639518
77,tura,25.5198,90.2201,22.01,83,26,1.66,IN,1729639519
78,sinabang,2.4803,96.3801,25.75,84,81,0.45,ID,1729639520
79,el bayadh,33.6832,1.0193,13.18,51,33,2.71,DZ,1729639521
80,ain sukhna,29.6002,32.3167,19.2,65,0,5.75,EG,1729639522
81,tambura,5.6,27.4667,20.88,97,86,1.23,SS,1729639523
82,mo i rana,66.3128,14.1428,5.74,93,100,1.03,NO,1729639203
83,hamilton,39.1834,-84.5333,21.88,45,0,4.63,US,1729639322
84,machico,32.7,-16.7667,22.06,83,40,6.17,PT,1729639527
85,badger,64.8,-147.5333,2.21,90,100,4.12,US,1729639529
86,yima,34.7381,111.8839,8.32,55,0,0.2,CN,1729639530
87,iskateley,67.6803,53.1512,6.14,97,100,3.95,RU,1729639532
88,muravlenko,63.7898,74.523,-6.45,90,100,4.95,RU,1729639533
89,chinde,26.8212,87.7095,21.37,40,69,3.38,NP,1729639534
90,lusambo,-4.9667,23.45,21.29,89,58,0.81,CD,1729639535
91,nagqu,31.5,92.0,-4.24,55,96,1.71,CN,1729639536
92,toliara,-23.35,43.6667,25.02,66,8,2.68,MG,1729639538
93,hikari,33.955,131.95,21.82,93,87,6.59,JP,1729639540
94,edd,13.9297,41.6925,31.11,65,49,2.21,ER,1729639541
95,hadibu,12.65,54.0333,26.24,83,7,1.36,YE,1729639542
96,jamestown,42.097,-79.2353,20.8,53,0,3.09,US,1729639479
97,tofol,5.3248,163.0078,30.88,66,40,2.57,FM,1729639544
98,estebania,18.4577,-70.6435,26.34,82,74,0.72,DO,1729639545
99,pisco,-13.7,-76.2167,19.03,82,0,7.72,PE,1729639546
100,puerto natales,-51.7236,-72.4875,8.47,89,99,4.36,CL,1729639548
101,stephenville,32.2207,-98.2023,30.64,45,0,3.09,US,1729639409
102,vernon,50.2581,-119.2691,12.64,56,19,0.51,CA,1729639301
103,pindushi,62.9152,34.58,7.19,92,99,2.73,RU,1729639551
104,abra pampa,-22.7205,-65.697,11.59,72,49,4.8,AR,1729639552
105,crane,31.3974,-102.3501,30.82,31,0,0.19,US,1729639553
106,paveh,35.0434,46.3565,3.44,40,11,1.96,IR,1729639555
107,fale old settlement,-9.3852,-171.2468,28.37,79,33,6.57,TK,1729639556
108,luderitz,-26.6481,15.1594,18.67,44,0,0.38,NA,1729639557
109,casas grandes,30.3667,-107.95,29.02,19,0,4.1,MX,1729639558
110,harper,4.375,-7.7169,25.27,88,88,4.66,LR,1729639559
111,el nido,11.1858,119.3956,27.86,92,100,10.68,PH,1729639561
112,choyr,46.3611,108.3611,-1.29,66,7,2.97,MN,1729639563
113,northam,51.0333,-4.2167,10.9,97,10,3.01,GB,1729639564
114,perigueux,45.1833,0.7167,10.6,89,18,1.8,FR,1729639565
115,obo,5.3998,26.4869,20.35,98,97,0.15,CF,1729639566
116,brisas de zicatela,15.8369,-97.0419,29.29,79,100,3.09,MX,1729639568
117,bac lieu,9.285,105.7244,24.21,89,100,0.98,VN,1729639570
118,ola,59.5833,151.2833,-4.78,55,28,3.26,RU,1729639571
119,cidreira,-30.1811,-50.2056,21.18,91,0,2.49,BR,1729639443
120,lubango,-14.9172,13.4925,21.92,26,17,4.12,AO,1729639525
121,kalemie,-5.9475,29.1947,23.54,69,33,1.63,CD,1729639574
122,jeannette,40.3281,-79.6153,22.14,61,0,0.0,US,1729639575
123,remire-montjoly,4.9167,-52.2667,28.02,74,0,2.06,GF,1729639576
124,cooma,-36.2333,149.1333,19.63,41,99,3.18,AU,1729639578
125,mangalia,43.8,28.5833,12.47,74,13,2.52,RO,1729639579
126,niel,51.11,4.3362,11.23,96,75,2.2,BE,1729639580
127,college,64.8569,-147.8028,2.26,85,100,4.12,US,1729639581
128,villa ojo de agua,-29.5,-63.6938,21.14,85,65,4.44,AR,1729639582
129,afaahiti,-17.75,-149.2833,24.83,86,78,7.04,PF,1729639393
130,srednebelaya,50.6594,128.0106,-4.49,62,6,2.16,RU,1729639585
131,worland,44.0169,-107.9554,13.83,45,0,3.13,US,1729639586
132,ma'rib,15.4591,45.3253,25.9,32,10,1.8,YE,1729639587
133,happy valley-goose bay,53.3168,-60.3315,2.17,69,20,4.63,CA,1729639337
134,nguigmi,14.2495,13.1092,29.54,19,87,4.74,NE,1729639589
135,cockburn town,21.4612,-71.1419,28.92,73,8,3.21,TC,1729639524
136,kupang,-10.1667,123.5833,28.32,94,20,1.03,ID,1729639591
137,san antonio de pale,-1.4014,5.6325,25.27,81,59,5.66,GQ,1729639593
138,peace river,56.2501,-117.286,4.17,70,75,6.17,CA,1729639594
139,petropavlovsk-kamchatsky,53.0452,158.6483,8.33,76,75,1.0,RU,1729639595
140,yermentau,51.6214,73.1069,6.31,82,99,5.63,KZ,1729639596
141,klyuchi,52.2667,79.1667,2.3,89,95,1.2,RU,1729639597
142,ta`u,-14.2336,-169.5144,26.95,83,44,8.92,AS,1729639599
143,dunedin,-45.8742,170.5036,19.66,54,99,3.07,NZ,1729639601
144,sydney,-33.8679,151.2073,24.09,58,0,3.6,AU,1729639338
145,kiruna,67.8557,20.2251,1.51,87,20,3.6,SE,1729639603
146,nuuk,64.1835,-51.7216,1.34,80,100,6.17,GL,1729639604
147,imuris,30.7833,-110.8667,33.05,10,44,2.84,MX,1729639605
148,weno,7.4515,151.8468,28.97,89,100,1.54,FM,1729639607
149,burutu,5.3509,5.5076,25.54,89,100,1.6,NG,1729639609
150,port lincoln,-34.7333,135.8667,16.4,56,39,5.72,AU,1729639610
151,maluso,6.543,121.8753,26.97,87,100,6.08,PH,1729639611
152,collinsville,38.6703,-89.9846,24.96,43,0,5.14,US,1729639613
153,isla vista,34.4133,-119.861,28.58,38,0,1.34,US,1729639614
154,port mathurin,-19.6833,63.4167,23.19,91,24,11.02,MU,1729639616
155,georgetown,5.4112,100.3354,25.96,88,20,1.03,MY,1729639341
156,bodo,67.28,14.405,7.02,82,75,7.2,NO,1729639618
157,khvansar,33.2205,50.315,2.53,50,0,2.79,IR,1729639619
158,namibe,-15.1961,12.1522,19.43,80,15,3.3,AO,1729639620
159,olonkinbyen,70.9221,-8.7187,-2.05,92,100,8.91,SJ,1729639621
160,eraan,9.0629,117.7016,26.36,89,100,6.75,PH,1729639622
161,richards bay,-28.783,32.0377,18.15,91,53,2.31,ZA,1729639624
162,saqqez,36.2499,46.2735,3.12,87,100,0.91,IR,1729639625
163,udaipur,24.5712,73.6918,22.67,55,1,1.72,IN,1729639626
164,chernyshevsk,52.5243,117.0174,-9.3,97,100,1.14,RU,1729639627
165,vallenar,-28.5708,-70.7581,13.66,52,0,2.8,CL,1729639628
166,gadzhiyevo,69.2551,33.3362,5.41,86,52,4.26,RU,1729639629
167,kirakira,-10.4544,161.9205,26.28,84,100,1.77,SB,1729639630
168,acajutla,13.5928,-89.8275,27.7,79,84,0.98,SV,1729639632
169,thurso,58.5927,-3.5259,10.14,78,83,6.62,GB,1729639633
170,ridgecrest,35.6225,-117.6709,29.82,14,0,2.24,US,1729639635
171,kirensk,57.7853,108.1119,0.37,99,100,1.39,RU,1729639636
172,luza,60.6308,47.2512,8.92,83,100,4.19,RU,1729639638
173,ketchikan,55.3422,-131.6461,6.99,70,100,2.57,US,1729639639
174,brandon,27.9378,-82.2859,27.19,70,0,4.47,US,1729639460
175,codrington,-38.2667,141.9667,13.94,59,58,4.76,AU,1729639641
176,aasiaat,68.7098,-52.8699,-7.33,81,100,3.34,GL,1729639406
177,xining,36.6167,101.7667,4.19,34,0,0.94,CN,1729639643
178,calvinia,-31.4707,19.776,14.54,55,76,4.88,ZA,1729639644
179,amboasary,-25.0333,46.3833,19.14,83,84,2.68,MG,1729639646
180,caleta de carquin,-11.0925,-77.6267,19.28,79,10,4.25,PE,1729639647
181,ust-nera,64.5667,143.2,-16.39,97,91,0.37,RU,1729639648
182,san patricio,28.017,-97.5169,26.97,57,100,4.94,US,1729639649
183,isafjordur,66.0755,-23.124,-1.89,78,99,3.57,IS,1729639650
184,tralee,52.2704,-9.7026,7.69,94,50,2.34,IE,1729639651
185,si racha,13.1737,100.9311,23.4,78,86,0.84,TH,1729639653
186,susuman,62.7833,148.1667,-18.96,100,98,0.95,RU,1729639654
187,nova sintra,14.8667,-24.7167,26.44,79,45,10.5,CV,1729639655
188,fortuna,40.5982,-124.1573,14.96,84,0,5.14,US,1729639656
189,funafuti,-8.5243,179.1942,30.0,79,75,3.09,TV,1729639657
190,haiku-pauwela,20.9219,-156.3051,29.01,70,40,11.18,US,1729639658
191,boca do acre,-8.7522,-67.3978,29.52,57,79,0.91,BR,1729639661
192,novoishimskiy,53.1981,66.7694,0.53,77,3,3.65,KZ,1729639662
193,swakopmund,-22.6833,14.5333,13.32,86,26,1.34,NA,1729639663
194,mawu,34.4307,104.9176,3.05,75,0,2.16,CN,1729639664
195,los angeles,34.0522,-118.2437,31.41,41,0,5.66,US,1729639430
196,tulun,54.5611,100.5792,-0.88,97,100,1.9,RU,1729639666
197,martins ferry,40.0959,-80.7245,20.11,52,9,1.84,US,1729639432
198,saint-joseph,-21.3667,55.6167,21.21,78,28,6.22,RE,1729639670
199,chios,38.3678,26.1358,15.52,69,0,5.64,GR,1729639671
200,macau,22.2006,113.5461,25.85,65,20,11.83,MO,1729639672
201,geraldton,-28.7667,114.6,14.23,77,0,5.66,AU,1729639628
202,liangxiang,39.7319,116.14,9.68,49,0,0.82,CN,1729639675
203,hithadhoo,-0.6,73.0833,27.66,74,100,4.02,MV,1729639676
204,moranbah,-22.0016,148.0466,27.31,55,35,4.03,AU,1729639677
205,enewetak,11.3474,162.3373,28.23,76,100,7.19,MH,1729639678
206,howard springs,-12.497,131.047,32.15,83,66,1.18,AU,1729639679
207,akureyri,65.6835,-18.0878,-0.04,69,75,2.57,IS,1729639680
208,waltershausen,50.9,10.5667,7.06,91,90,0.74,DE,1729639682
209,raja,8.4596,25.678,23.92,73,62,1.47,SS,1729639683
210,porto-vecchio,41.591,9.2795,18.81,88,100,3.09,FR,1729639684
211,johvi,59.3592,27.4211,9.17,91,91,4.43,EE,1729639685
212,hermanus,-34.4187,19.2345,16.56,74,96,5.86,ZA,1729639688
213,lihue,21.9789,-159.3672,28.74,70,0,3.6,US,1729639690
214,ephraim,39.3597,-111.5863,21.01,25,79,1.85,US,1729639636
215,san rafael,-34.6177,-68.3301,15.14,83,100,6.41,AR,1729639326
216,egilsstadir,65.2653,-14.3948,-1.05,80,100,5.66,IS,1729639693
217,alice springs,-23.7,133.8833,24.75,36,0,6.69,AU,1729639694
218,i-n-salah,27.1935,2.4607,21.15,53,2,6.51,DZ,1729639697
219,nelson bay,-32.7167,152.15,22.28,69,40,1.79,AU,1729639698
220,east london,-33.0153,27.9116,17.89,90,100,5.94,ZA,1729639646
221,eyl,7.9803,49.8164,26.57,82,57,5.96,SO,1729639700
222,la'ie,21.6477,-157.9253,31.66,72,100,1.79,US,1729639701
223,honiara,-9.4333,159.95,27.87,80,100,5.16,SB,1729639702
224,manokwari,-0.8667,134.0833,26.63,81,99,0.9,ID,1729639703
225,esmeraldas,-19.7625,-44.3139,22.09,73,99,2.74,BR,1729639488
226,teploye,53.6202,37.5903,9.01,65,99,4.35,RU,1729639706
227,urucara,-2.5364,-57.76,30.8,49,98,1.38,BR,1729639707
228,gbarnga,6.9956,-9.4722,22.04,100,65,1.11,LR,1729639708
229,dolbeau-mistassini,48.8763,-72.212,11.26,79,95,4.82,CA,1729639709
230,meraux,29.933,-89.9498,23.99,63,0,2.06,US,1729639710
231,chonchi,-42.6128,-73.8092,13.95,79,4,1.78,CL,1729639711
232,san jose de jachal,-30.2406,-68.7469,13.52,85,100,2.89,AR,1729639713
233,villeta,5.0089,-74.4723,20.61,99,99,0.78,CO,1729639533
234,amga,60.8953,131.9608,-17.35,97,89,1.52,RU,1729639716
235,phan rang-thap cham,11.5667,108.9833,23.52,89,100,1.98,VN,1729639718
236,tukrah,32.5341,20.5791,20.33,67,93,2.42,LY,1729639719
237,dawesville,30.9224,-84.0091,25.2,61,0,1.54,US,1729639720
238,lorengau,-2.0226,147.2712,28.83,74,93,4.17,PG,1729639721
239,itoman,26.1247,127.6694,27.83,91,40,4.12,JP,1729639722
240,port moresby,-9.4431,147.1797,29.68,54,40,7.72,PG,1729639724
241,vilhena,-12.7406,-60.1458,27.12,78,75,4.12,BR,1729639221
242,zhalantun,48.0,122.7167,-3.59,78,36,1.11,CN,1729639726
243,la palma,33.8464,-118.0467,31.33,32,20,5.14,US,1729639727
244,noumea,-22.2763,166.4572,28.89,99,0,1.71,NC,1729639728
245,valencia de alcantara,39.4115,-7.2444,17.33,80,0,1.59,ES,1729639730
246,kapuskasing,49.4169,-82.4331,18.05,55,75,5.14,CA,1729639731
247,estevan,49.1334,-102.9842,3.11,75,100,6.17,CA,1729639732
248,dasuya,31.8183,75.6597,20.21,55,0,0.44,IN,1729639733
249,fredericksburg,38.3032,-77.4605,18.97,68,0,0.0,US,1729639681
250,las amilpas,16.3667,-94.6167,26.6,74,68,8.17,MX,1729639736
251,muhos,64.808,25.9931,6.19,91,97,3.66,FI,1729639737
252,constantia,44.1833,28.65,7.61,71,13,3.06,RO,1729639738
253,dharur,18.8167,76.1167,20.81,87,27,2.57,IN,1729639739
254,terenozek,45.05,64.9833,9.76,67,100,5.5,KZ,1729639740
255,ewo,-0.8725,14.8206,23.71,87,93,0.47,CG,1729639741
256,kharabali,47.4196,47.2568,7.24,79,93,3.94,RU,1729639743
257,youhao,47.8667,128.8333,-1.91,71,70,1.19,CN,1729639744
258,shindand,33.3029,62.1474,15.37,46,0,2.33,AF,1729639745
259,fort bragg,35.139,-79.006,20.75,69,0,1.54,US,1729639746
260,ibshaway,29.358,30.6814,20.17,55,0,6.58,EG,1729639747
261,vila velha,-20.3297,-40.2925,24.97,89,75,6.17,BR,1729639748
262,queenstown,-31.8976,26.8753,11.9,89,100,1.81,ZA,1729639749
263,amos,48.5669,-78.1162,16.83,52,100,5.43,CA,1729639521
264,gizo,-8.103,156.8419,27.05,84,100,4.77,SB,1729639752
265,santa elena de uairen,4.6167,-61.1333,22.25,73,99,1.59,VE,1729639753
266,manastirea,44.2167,26.9,10.63,47,26,1.9,RO,1729639754
267,undurkhaan,47.3194,110.6556,-1.51,79,18,2.29,MN,1729639755
268,hawaiian paradise park,19.5933,-154.9731,27.73,78,75,6.17,US,1729639756
269,fortaleza,-3.7227,-38.5247,27.82,87,40,6.17,BR,1729639573
270,souillac,-20.5167,57.5167,23.21,78,40,3.6,MU,1729639759
271,safford,32.834,-109.7076,31.53,12,0,0.45,US,1729639760
272,taghazout,30.5426,-9.7112,21.64,71,100,2.1,MA,1729639761
273,karema,-6.8205,30.4389,24.07,70,8,1.22,TZ,1729639762
274,posse,-14.0931,-46.3694,22.98,77,100,2.54,BR,1729639763
275,woolgoolga,-30.1106,153.2007,22.75,67,6,2.26,AU,1729639764
276,lazaro cardenas,17.9583,-102.2,28.68,79,57,2.37,MX,1729639765
277,simanggang,1.2472,111.4528,23.99,100,100,0.0,MY,1729639767
278,kimbe,-5.5502,150.1429,26.51,88,91,2.16,PG,1729639768
279,dili,-8.5586,125.5736,29.16,63,8,1.11,TL,1729639769
280,barela,23.1,80.05,19.94,57,15,0.73,IN,1729639770
281,phetchaburi,12.9667,99.5833,21.49,97,99,1.11,TH,1729639771
282,nabire,-3.3667,135.4833,25.04,92,100,1.33,ID,1729639774
283,forster,-32.1667,152.5167,24.65,60,30,2.37,AU,1729639776
284,mananjary,-21.2167,48.3333,21.8,75,90,2.13,MG,1729639777
285,ponta delgada,37.7333,-25.6667,21.4,68,40,5.66,PT,1729639778
286,allapalli,19.4167,80.0667,19.68,81,91,0.81,IN,1729639780
287,arys,42.4252,68.795,10.5,61,100,2.7,KZ,1729639781
288,cafayate,-26.073,-65.9761,21.37,66,94,4.36,AR,1729639782
289,hirara,24.8,125.2833,26.92,94,75,8.75,JP,1729639783
290,camana,-16.6228,-72.7111,17.99,86,11,4.05,PE,1729639784
291,punta arenas,-53.15,-70.9167,9.06,76,75,7.2,CL,1729639785
292,selfoss,63.9331,-20.9971,2.25,75,100,7.61,IS,1729639788
293,aflou,34.1128,2.1023,11.88,58,50,2.26,DZ,1729639789
294,puerto aysen,-45.4,-72.7,14.58,95,55,1.66,CL,1729639515
295,hafnarfjordur,64.0671,-21.9377,3.95,52,100,6.17,IS,1729639792
296,bochum,51.4833,7.2167,9.86,94,32,0.45,DE,1729639794
297,puerto baquerizo moreno,-0.9,-89.6,20.89,83,96,5.28,EC,1729639795
298,hanceville,34.0607,-86.7675,21.23,47,0,1.2,US,1729639796
299,dudinka,69.4058,86.1778,-25.64,100,74,0.19,RU,1729639797
300,greymouth,-42.4667,171.2,13.55,96,100,2.91,NZ,1729639798
301,minas de marcona,-15.2119,-75.1103,14.86,80,1,7.25,PE,1729639799
302,shani,10.2162,12.062,27.1,53,91,1.54,NG,1729639801
303,port elizabeth,-33.918,25.5701,16.29,99,75,1.54,ZA,1729639802
304,mogadishu,2.0371,45.3438,25.64,90,22,5.66,SO,1729639803
305,lata,40.1629,-8.3327,14.04,80,0,2.08,PT,1729639804
306,ataq,14.5377,46.8319,23.27,62,78,2.0,YE,1729639805
307,aban,56.67,96.06,-0.55,93,100,4.22,RU,1729639806
308,flying fish cove,-10.4217,105.6791,24.82,88,100,5.14,CX,1729639807
309,pontes e lacerda,-15.2261,-59.3353,26.11,64,44,0.99,BR,1729639701
310,talara,-4.5772,-81.2719,22.42,73,40,6.17,PE,1729639811
311,gangapur,26.4833,76.7167,24.3,39,3,1.57,IN,1729639812
312,morondava,-20.2833,44.2833,25.18,84,12,0.58,MG,1729639813
313,zemetchino,53.4973,42.6163,8.33,75,100,3.62,RU,1729639814
314,benguela,-12.5763,13.4055,24.11,80,89,2.49,AO,1729639816
315,katsuura,35.1333,140.3,24.55,83,100,7.08,JP,1729639817
316,flin flon,54.7682,-101.865,-1.09,74,75,3.6,CA,1729639818
317,qoryooley,1.7878,44.53,24.66,92,22,4.33,SO,1729639819
318,whitehorse,60.7161,-135.0538,4.43,65,75,3.09,CA,1729639820
319,magadan,59.5667,150.8,-4.65,56,24,2.16,RU,1729639821
320,quelimane,-17.8786,36.8883,24.97,94,0,3.09,MZ,1729639822
321,grand rapids,42.9634,-85.6681,20.86,45,75,5.14,US,1729639696
322,castillos,-34.1667,-53.8333,16.5,86,62,2.57,UY,1729639825
323,kruisfontein,-34.0033,24.7314,14.7,92,86,0.89,ZA,1729639826
324,tobelo,1.7284,128.0095,29.31,68,71,1.57,ID,1729639827
325,qaqortoq,60.7167,-46.0333,0.66,96,100,1.33,GL,1729639828
326,congonhas,-20.4997,-43.8578,20.73,81,100,1.47,BR,1729639829
327,wang nam yen,13.5033,102.1812,23.76,94,76,1.3,TH,1729639830
328,jacmel,18.2342,-72.5347,26.67,81,99,2.0,HT,1729639832
329,umm kaddadah,13.6017,26.6876,29.53,19,64,6.85,SD,1729639833
330,menaka,15.9182,2.4022,33.61,27,78,2.32,ML,1729639834
331,mikhaylovskoye,51.8239,79.7172,2.95,88,100,1.34,RU,1729639836
332,geneina,13.45,22.45,24.34,23,22,4.52,SD,1729639837
333,oleszyce,50.1675,23.0348,8.12,77,17,3.6,PL,1729639838
334,nantucket,41.2835,-70.0995,14.52,88,0,3.43,US,1729639582
335,tolanaro,-25.0319,46.9987,22.04,83,40,4.12,MG,1729639841
336,shakawe,-18.3667,21.85,23.12,21,5,2.24,BW,1729639842
337,arraial do cabo,-22.9661,-42.0278,23.98,100,0,6.69,BR,1729639631
338,utrik,11.2278,169.8474,28.21,79,80,5.41,MH,1729639844
339,pyapon,16.2833,95.6833,24.33,97,100,1.75,MM,1729639845
340,inarajan village,13.2736,144.7484,29.11,84,100,6.09,GU,1729639847
341,sovetskaya gavan',48.9723,140.2878,6.74,83,100,5.77,RU,1729639848
342,moyynkum,44.2914,72.9469,9.9,86,100,3.16,KZ,1729639850
343,alofi,-19.0595,-169.9187,25.94,65,100,7.72,NU,1729639851
344,island harbour,50.724,-1.2758,12.79,63,12,3.28,GB,1729639852
345,aral,40.5156,81.2636,10.22,23,53,2.05,CN,1729639853
346,coquimbo,-29.9533,-71.3436,15.85,61,75,1.54,CL,1729639268
347,prineville,44.2999,-120.8345,13.58,52,0,0.89,US,1729639858
348,uliastay,47.7417,96.8444,-4.69,75,51,3.37,MN,1729639859
349,mumbwa,-14.9783,27.0619,24.69,37,77,0.28,ZM,1729639860
350,san miguel,13.4833,-88.1833,29.81,100,40,1.54,SV,1729639861
351,hasaki,35.7333,140.8333,24.8,77,100,7.27,JP,1729639862
352,kalabo,-14.97,22.6814,23.12,60,75,1.28,ZM,1729639864
353,tazovsky,67.4667,78.7,-20.57,98,77,2.38,RU,1729639865
354,uturoa,-16.7333,-151.4333,26.66,81,38,6.26,PF,1729639866
355,gazli,40.1333,63.45,10.01,54,29,2.88,UZ,1729639867
356,villa gesell,-37.2639,-56.973,15.75,66,100,5.28,AR,1729639623
357,prince george,53.9166,-122.753,3.69,70,0,9.77,CA,1729639869
358,al ghayzah,16.2079,52.176,27.47,77,96,2.25,YE,1729639871
359,saudarkrokur,65.7461,-19.6394,-3.29,83,84,1.9,IS,1729639872
360,kayangel,8.0823,134.7173,29.55,76,100,5.96,PW,1729639873
361,buka,40.8108,69.1986,10.95,92,100,2.31,UZ,1729639874
362,birzebbuga,35.8258,14.5269,22.38,83,40,4.12,MT,1729639875
363,yuzhno-kurilsk,44.0306,145.8556,14.13,87,100,7.51,RU,1729639876
364,placido de castro,-10.3353,-67.1856,24.7,91,97,1.64,BR,1729639878
365,maun,-19.9833,23.4167,28.98,23,0,4.63,BW,1729639879
366,sandnessjoen,66.0217,12.6316,8.89,72,80,14.27,NO,1729639880
367,sao vicente,-23.9631,-46.3919,24.97,26,46,2.24,BR,1729639767
368,quibdo,5.6947,-76.6611,26.19,94,40,0.0,CO,1729639882
369,cibla,56.55,27.8833,11.65,80,98,4.28,LV,1729639883
370,filipstad,59.7124,14.1683,7.11,70,32,5.96,SE,1729639884
371,kolonia town,6.964,158.206,31.0,74,100,3.09,FM,1729639886
372,bengkulu,-3.8004,102.2655,25.0,87,99,1.36,ID,1729639887
373,sydney mines,46.2367,-60.2177,7.1,87,16,0.45,CA,1729639888
374,santa ana,33.7456,-117.8678,32.66,32,20,3.6,US,1729639820
375,sake,-1.5736,29.045,16.92,94,90,0.21,CD,1729639890
376,acarau,-2.8856,-40.12,25.74,78,68,7.9,BR,1729639891
377,kemijarvi,66.7131,27.4306,5.42,89,64,3.77,FI,1729639892
378,kingscliff,-28.2667,153.5667,26.08,68,7,4.63,AU,1729639894
379,khandyga,62.6667,135.6,-16.75,78,16,1.81,RU,1729639895
380,boa vista,2.8197,-60.6733,29.99,66,75,2.57,BR,1729639603
381,gorontalo,0.5412,123.0595,28.9,70,100,0.8,ID,1729639897
382,svetlograd,45.3353,42.8547,5.68,83,47,2.23,RU,1729639898
383,selkirk,50.1436,-96.8845,5.1,81,100,2.68,CA,1729639900
384,concepcion,-36.827,-73.0498,13.89,88,0,6.69,CL,1729639831
385,labytnangi,66.6572,66.4183,-2.75,96,100,3.41,RU,1729639903
386,kavaratti,10.5669,72.642,27.27,76,95,2.4,IN,1729639904
387,ujae,8.9322,165.7642,28.75,74,99,5.52,MH,1729639905
388,selebi-phikwe,-21.979,27.8498,23.68,45,40,3.17,BW,1729639906
389,dubbo,-32.25,148.6167,24.07,41,93,2.06,AU,1729639907
390,camalu,30.85,-116.0667,22.12,56,0,3.97,MX,1729639908
391,xilin hot,43.9667,116.0333,3.18,61,28,5.27,CN,1729639910
392,plastun,44.7561,136.2939,8.29,95,100,6.07,RU,1729639911
393,caglayancerit,37.7496,37.2962,4.01,70,0,4.34,TR,1729639912
394,port saint john's,-31.6229,29.5448,18.94,88,100,8.2,ZA,1729639913
395,floro,61.5996,5.0328,8.98,81,75,6.69,NO,1729639914
396,santa cruz,-17.8,-63.1667,29.03,70,20,3.09,BO,1729639915
397,sao tome,0.3365,6.7273,25.85,85,82,4.1,ST,1729639916
398,taltal,-25.4,-70.4833,16.26,73,10,1.62,CL,1729639919
399,tinogasta,-28.0632,-67.5649,17.4,75,100,2.17,AR,1729639838
400,ke-macina,13.9623,-5.3572,30.06,34,48,3.01,ML,1729639921
401,sisimiut,66.9395,-53.6735,-0.91,75,97,4.12,GL,1729639922
402,sao felix do xingu,-6.6447,-51.995,24.93,79,82,1.06,BR,1729639923
403,likiep,9.8251,169.3107,28.35,78,87,4.77,MH,1729639926
404,kavieng,-2.5744,150.7967,29.45,65,84,1.45,PG,1729639927
405,talakan,50.3167,130.3667,-0.53,66,5,0.98,RU,1729639928
406,novo aripuana,-5.1206,-60.3797,26.36,71,53,1.14,BR,1729639929
407,jinchang,38.4953,102.1739,8.87,19,0,0.37,CN,1729639930
408,mili,6.0815,171.735,26.8,78,96,1.55,MH,1729639931
409,betio village,1.358,172.9211,31.02,70,31,5.49,KI,1729639933
410,aberdeen,57.1437,-2.0981,7.89,86,100,2.57,GB,1729639684
411,kisangani,0.5167,25.2,21.24,97,48,0.89,CD,1729639935
412,schuyler,42.4167,-76.883,18.98,76,0,3.22,US,1729639936
413,sambava,-14.2667,50.1667,22.27,82,34,5.68,MG,1729639937
414,berdigestyakh,62.0989,126.6992,-11.45,87,100,4.77,RU,1729639938
415,susanville,40.4163,-120.653,17.23,20,92,3.72,US,1729639935
416,alappuzha,9.49,76.3264,25.9,86,95,2.04,IN,1729639942
417,simojovel de allende,17.2,-92.6333,23.05,100,100,0.87,MX,1729639943
418,mut,36.6439,33.4389,9.85,48,0,3.2,TR,1729639944
419,chabahar,25.2919,60.643,26.43,82,10,0.94,IR,1729639945
420,sergeyevka,53.88,67.4158,-0.02,80,13,3.95,KZ,1729639947
421,amal,59.051,12.7049,9.21,64,2,10.23,SE,1729639948
422,edea,3.8,10.1333,23.92,99,99,0.18,CM,1729639949
423,severo-yeniseyskiy,60.3725,93.0408,-11.31,94,100,3.44,RU,1729639950
424,farafangana,-22.8167,47.8333,22.42,62,49,2.23,MG,1729639951
425,mercedes,-34.6515,-59.4307,22.66,30,100,6.86,AR,1729639934
426,waycross,31.2136,-82.354,23.27,68,0,2.57,US,1729639953
427,matoury,4.8483,-52.3317,27.98,74,0,2.06,GF,1729639955
428,tucuma,-0.1833,-50.05,27.02,75,93,5.28,BR,1729639956
429,kill devil hills,36.0307,-75.676,19.99,91,40,2.06,US,1729639957
430,kimberley,-28.7323,24.7623,13.83,62,0,6.69,ZA,1729639958
431,bonthe,7.5264,-12.505,25.69,86,93,2.69,SL,1729639959
432,chibougamau,49.9168,-74.3659,12.79,82,75,5.14,CA,1729639766
433,smara,26.7384,-11.6719,23.26,61,91,4.58,EH,1729639961
434,vodice,43.7608,15.7828,15.95,93,55,1.63,HR,1729639963
435,metlili chaamba,32.2667,3.6333,18.52,63,0,4.12,DZ,1729639964
436,choibalsan,48.0667,114.5,-0.6,80,14,2.03,MN,1729639965
437,lindi,-10.0,39.7167,24.43,89,89,1.04,TZ,1729639966
438,mount pearl,47.5166,-52.7813,6.85,76,5,2.08,CA,1729639967
439,valparaiso,-33.0393,-71.6273,16.75,100,100,5.14,CL,1729639752
440,port shepstone,-30.7414,30.455,19.59,77,100,9.95,ZA,1729639969
441,batticaloa,7.7102,81.6924,26.12,85,100,2.47,LK,1729639971
442,zgurovka,50.5028,31.7849,7.82,59,27,3.83,UA,1729639973
443,new norfolk,-42.7826,147.0587,14.95,25,32,2.06,AU,1729639974
444,an nuhud,12.7,28.4333,28.06,23,4,5.13,SD,1729639975
445,pemangkat,1.1667,108.9667,27.51,80,98,3.14,ID,1729639978
446,portland,45.5234,-122.6762,16.05,65,0,1.54,US,1729639858
447,imperatriz,-5.5264,-47.4917,32.03,48,0,1.54,BR,1729639981
448,kyshtovka,56.555,76.6271,2.09,74,100,2.55,RU,1729639982
449,dwarka,22.2394,68.9678,28.47,73,5,4.66,IN,1729639983
450,kaiapoi,-43.3783,172.6401,23.93,50,24,3.09,NZ,1729639985
451,dhidhdhoo,6.8833,73.1,27.51,79,100,5.53,MV,1729639986
452,kamloops,50.6665,-120.3192,10.97,62,20,1.54,CA,1729639977
453,acapulco de juarez,16.8634,-99.8901,29.9,70,40,3.09,MX,1729639736
454,homer,59.6425,-151.5483,7.94,60,0,14.31,US,1729639987
455,newman,37.3138,-121.0208,26.14,42,15,2.68,US,1729639990
456,yabelo,4.8833,38.0833,15.74,84,100,2.69,ET,1729639991
457,kingston,17.997,-76.7936,29.53,74,20,1.03,JM,1729639710
458,klaksvik,62.2266,-6.589,8.37,97,100,12.83,FO,1729639994
459,hilo,19.7297,-155.09,27.85,82,75,6.17,US,1729639989
460,vilyuchinsk,52.9306,158.4028,9.15,89,100,0.93,RU,1729639996
461,port blair,11.6667,92.75,26.02,100,75,2.06,IN,1729639997
462,ati,13.2154,18.3353,27.83,14,14,4.06,TD,1729639998
463,bandiagara,14.3501,-3.6104,31.73,35,75,2.59,ML,1729640000
464,robore,-18.3333,-59.75,27.25,56,69,2.04,BO,1729640001
465,ziro,27.6333,93.8333,9.05,65,25,1.23,IN,1729640002
466,onega,63.9061,38.1404,5.86,86,58,4.14,RU,1729640003
467,novodvinsk,64.4165,40.8122,6.86,80,100,3.97,RU,1729640004
468,gornopravdinsk,60.05,69.9,1.11,84,100,3.99,RU,1729640006
469,nouadhibou,20.931,-17.0347,22.99,68,56,6.69,MR,1729640007
470,revda,56.801,59.9303,5.37,88,100,4.61,RU,1729640008
471,tevriz,57.509,72.4042,-0.56,90,45,2.77,RU,1729640009
472,alaghsas,17.0187,8.0168,33.19,24,61,4.7,NE,1729640010
473,aurich,53.4667,7.4833,11.62,84,21,2.57,DE,1729640011
474,guarapari,-20.6667,-40.4975,22.78,90,6,4.97,BR,1729640012
475,saint-pierre,-21.3393,55.4781,21.82,73,20,4.63,RE,1729639956
476,khorugh,37.4897,71.553,5.52,42,77,1.79,TJ,1729640016
477,galliano,29.4422,-90.2992,23.0,73,0,0.0,US,1729640017
478,shortandy,51.7006,70.9994,5.94,85,94,4.32,KZ,1729640019
479,namrup,27.1833,95.3333,19.81,85,65,0.22,IN,1729640022
480,xinqing,48.2333,129.5,-0.46,52,51,1.83,CN,1729640023
481,balabac,7.9868,117.0645,27.35,82,100,8.72,PH,1729640024
482,karystos,38.0133,24.4161,16.72,73,0,6.69,GR,1729640025
483,gilgit,35.9221,74.3087,13.0,46,71,0.59,PK,1729640026
484,alta,69.9689,23.2717,1.59,80,20,1.03,NO,1729640028
485,levuka,50.1834,-105.4011,1.84,60,78,3.05,CA,1729640029
486,arteche,12.2645,125.4048,26.74,81,100,5.07,PH,1729640030
487,aktau,43.65,51.2,8.32,71,100,4.63,KZ,1729640031
488,manaure,11.7751,-72.4445,28.0,78,43,2.42,CO,1729640032
489,khenifra,32.9333,-5.6667,18.18,37,100,2.46,MA,1729640018
490,tobruk,32.0836,23.9764,21.32,62,52,6.01,LY,1729640035
491,gwanda,-20.9333,29.0,22.65,55,67,2.24,ZW,1729640036
492,antofagasta,-23.65,-70.4,16.6,82,13,2.71,CL,1729640036
493,igarka,67.4667,86.5833,-21.09,100,61,2.4,RU,1729640038
494,sassandra,4.95,-6.0833,24.17,94,48,2.67,CI,1729640039
495,curaca,-8.9903,-39.9094,29.25,38,76,12.03,BR,1729640040
496,qui nhon,13.7667,109.2333,24.95,87,100,5.16,VN,1729640041
497,maxixe,-23.8597,35.3472,21.6,95,59,1.72,MZ,1729640043
498,thinadhoo,0.5333,72.9333,27.65,70,79,3.53,MV,1729640044
499,darende,38.5458,37.5058,4.47,70,6,2.75,TR,1729640046
500,al wafrah,28.6392,47.9306,18.99,23,58,5.15,KW,1729640047
501,suntar,62.1444,117.6319,-6.5,95,100,2.5,RU,1729640048
502,kirksville,40.1948,-92.5833,24.38,42,0,3.6,US,1729640050
503,tual,-5.6667,132.75,27.31,70,87,3.9,ID,1729639952
504,labrador city,52.9463,-66.9114,1.95,84,100,30.4,CA,1729639812
505,melouza,35.98,4.1867,13.84,78,23,2.44,DZ,1729640053
506,callao,-12.0667,-77.15,22.62,77,0,7.2,PE,1729640054
507,lompoc,34.6391,-120.4579,21.07,71,0,5.66,US,1729639777
508,broken hill,-31.95,141.4333,22.26,42,100,3.44,AU,1729640056
509,kargasok,59.0556,80.8572,-3.37,82,88,1.63,RU,1729640058
510,lewistown,40.5992,-77.5714,19.67,59,0,0.0,US,1729640059
511,ancud,-41.8697,-73.8203,11.25,88,0,0.39,CL,1729639879
512,buala,-8.145,159.5921,26.81,86,100,6.24,SB,1729640062
513,lethem,3.3803,-59.7968,31.12,44,82,2.33,GY,1729640064
514,tabas,33.5959,56.9244,18.12,25,78,2.06,IR,1729640065
515,balkanabat,39.5108,54.3671,11.58,54,56,0.65,TM,1729640066
516,moletai,55.2333,25.4167,11.57,91,68,6.14,LT,1729640067
517,inirida,3.8653,-67.9239,26.09,85,95,1.24,CO,1729640068
518,vidyayevo,69.3191,32.8049,4.27,88,36,3.55,RU,1729640069
519,paka,4.6374,103.4368,25.96,83,40,1.54,MY,1729640071
520,labuan,5.2767,115.2417,27.2,83,20,1.54,MY,1729640072
521,kokopo,-4.352,152.2633,28.78,75,69,2.97,PG,1729640073
522,sitka,57.0531,-135.33,8.94,87,100,6.17,US,1729640074
523,yakeshi,49.2833,120.7333,-2.87,67,100,2.53,CN,1729639777
524,tashtyp,52.7939,89.8983,4.38,94,100,1.95,RU,1729640077
525,guerrero negro,27.9769,-114.0611,22.28,61,2,5.98,MX,1729639961
526,luanda,-8.8368,13.2343,25.0,83,75,4.12,AO,1729640079
527,lockwood,45.8191,-108.4149,14.94,35,40,5.14,US,1729640080
528,tsiombe,-25.3,45.4833,19.42,82,83,3.92,MG,1729640081
529,margate,51.3813,1.3862,12.05,91,0,3.84,GB,1729640082
530,viedma,-40.8135,-62.9967,17.06,50,46,4.54,AR,1729640060
531,san antonio huista,15.65,-91.7667,19.85,97,87,0.38,GT,1729640085
532,kenora,49.8167,-94.4337,5.54,93,100,3.6,CA,1729640086
533,champerico,14.3,-91.9167,27.78,77,100,3.18,GT,1729640087
534,dryden,49.7833,-92.7503,6.16,93,100,3.6,CA,1729640088
535,usogorsk,63.4106,48.6872,8.53,82,97,5.42,RU,1729640089
536,tarko-sale,64.9225,77.785,-14.39,93,36,3.64,RU,1729640090
537,keszthely,46.7681,17.2432,9.94,93,1,2.57,HU,1729640092
538,opuwo,-18.0607,13.84,21.75,14,0,3.15,NA,1729640093
539,santa rosa,14.3122,121.1114,25.61,94,100,6.26,PH,1729640094
540,coronel suarez,-37.4547,-61.9334,21.8,28,100,4.07,AR,1729639802
541,ixtapa,20.7,-105.2,27.35,94,100,2.57,MX,1729640096
542,kapa'a,22.0752,-159.319,28.6,72,0,3.6,US,1729640098
543,nazyvayevsk,55.5698,71.3529,-0.98,86,42,3.49,RU,1729640099
544,nurota,40.5614,65.6886,7.76,88,80,1.63,UZ,1729639932
545,papao,-17.75,-149.55,29.82,81,35,6.81,PF,1729640101
546,sucua,-2.4667,-78.1667,21.38,97,94,1.27,EC,1729640102
547,benjamin constant,-4.3831,-70.0311,30.03,79,0,0.0,BR,1729640103
548,kachug,53.9606,105.8817,-1.74,88,100,0.37,RU,1729640105
